{
  "content": [
    {
      "type": "text",
      "text": "# List of designated monuments in Sint Maarten__disambig_1\n\nSint Maarten has 51 designated monuments. The first objects were given this protected status in 2005.\nDutch Cul de Sac\nDutch Cul de Sac has 5 designated monuments\n| address = |lat =18.042856 |lon =-63.064249 | objnr =B-009 | commonscat= | image= }}\n|}\nLittle Bay\nLittle Bay has 2 designated monuments\n| address = Fort Hill |lat = 18.02568|lon =-63.060488 | objnr =B-005 | commonscat= | image= }}\n|}\nLower Prince's Quarter\nLower Prince's Quarter has 4 designated monuments\n|}\nPhilipsburg\nPhilipsburg has 33 designated monuments\n| architect = | address = Arch Road |lat = |lon = | objnr =B-020 | commonscat= | image= }}\n| address = Cannegieter Street |lat =18.02434|lon =-63.044469  | objnr =P-092 | commonscat= | image= }}\n| address = Front Street |lat =18.023822|lon =-63.04572  | objnr =P-058 | commonscat=Courthouse (Philipsburg, Sint Maarten)\n| image= Philipsburg Courthouse (6545974771).jpg}}\n| address = 37 Front Street |lat =18.023125|lon =-63.044618  | objnr =P-052 | commonscat= | image= }}\n| address = In Methodist Church yard |lat =  |lon =  | objnr =P-061 | commonscat= | image=Pastorie van Methodistenkerk, gesitueerd achter de kerk - 20650783 - RCE.jpg\n}}\n| address = 100 Front Street |lat = 18.024748|lon = -63.048333| objnr =P-065 | commonscat= | image= }}\n|}\nSimpson Bay\nSimpson Bay has 5 designated monuments\n| address = 28 Simpson Bay Road |lat = |lon = | objnr =S-005 | commonscat= | image= Kerkje - 20651203 - RCE.jpg}}\n|}\nUpper Prince's Quarter\nUpper Prince's Quarter has 2 designated monuments\n| address = J. Yrausquin Blvd |lat =18.016667 |lon =-63.040833 | objnr =B-002 | commonscat= | image= }}\n|}\nReferences"
    }
  ]
}